City_ID,City,Lat,Lng,Max Temp,Humidity,Cloudiness,Wind Speed,Country,Date
0,barrow,71.2906,-156.7887,-27.99,76,0,2.06,US,1675632145
1,krasnoselkup,65.7,82.4667,-21.88,100,91,1.82,RU,1675632150
2,qaanaaq,77.484,-69.3632,-18.7,59,2,3.81,GL,1675632151
3,rikitea,-23.1203,-134.9692,26.02,74,5,7.05,PF,1675632152
4,sola,-13.8833,167.55,27.88,78,100,8.79,VU,1675632153
5,pacific grove,36.6177,-121.9166,14.38,76,75,7.2,US,1675632154
6,ushuaia,-54.8,-68.3,8.79,70,40,12.35,AR,1675632155
7,punta arenas,-53.15,-70.9167,13.06,41,0,12.86,CL,1675631866
8,dabhol,17.6,73.1667,21.66,55,10,2.32,IN,1675631968
9,horki,54.2861,30.9842,-5.64,94,100,3.26,BY,1675632157
10,escanaba,45.7453,-87.0646,-2.83,72,100,4.12,US,1675631962
11,maniitsoq,65.4167,-52.9,-16.32,92,100,4.5,GL,1675632158
12,severo-kurilsk,50.6789,156.125,-4.17,75,97,2.73,RU,1675632159
13,balkhash,46.844,74.9804,-11.72,97,100,1.79,KZ,1675632160
14,glen allen,37.666,-77.5064,14.12,53,98,4.92,US,1675632161
15,padang,-0.9492,100.3543,23.03,77,100,1.28,ID,1675632162
16,tiksi,71.6872,128.8694,-32.93,100,100,1.38,RU,1675632162
17,port lincoln,-34.7333,135.8667,16.34,79,11,5.29,AU,1675632163
18,nizhniy kuranakh,58.8353,125.4869,-30.56,99,100,1.26,RU,1675632164
19,sur,22.5667,59.5289,21.57,73,7,2.82,OM,1675632164
20,jamestown,42.097,-79.2353,6.8,52,100,6.69,US,1675632053
21,cape town,-33.9258,18.4232,22.23,77,0,9.26,ZA,1675631887
22,hasaki,35.7333,140.8333,2.9,76,1,1.72,JP,1675632166
23,mataura,-46.1927,168.8643,15.17,86,94,5.0,NZ,1675632167
24,pevek,69.7008,170.3133,-38.56,99,77,1.55,RU,1675632168
25,fianarantsoa,-21.4333,47.0833,16.0,96,100,1.71,MG,1675632169
26,kondinskoye,59.6481,67.41,-17.74,98,100,0.54,RU,1675632170
27,ribeira grande,38.5167,-28.7,16.54,88,75,6.26,PT,1675632170
28,esperance,-33.8667,121.9,20.02,66,57,7.95,AU,1675632036
29,katsuura,35.1333,140.3,8.28,80,0,2.56,JP,1675632171
30,san patricio,28.017,-97.5169,25.97,52,0,3.32,US,1675632172
31,cochrane,51.1834,-114.4687,7.15,52,75,7.72,CA,1675632173
32,itarema,-2.9248,-39.9167,26.32,79,89,5.43,BR,1675632173
33,chokurdakh,70.6333,147.9167,-40.01,100,71,1.07,RU,1675632174
34,new norfolk,-42.7826,147.0587,16.51,64,100,0.89,AU,1675632041
35,dikson,73.5069,80.5464,-20.2,98,100,1.16,RU,1675632115
36,nalut,30.3333,10.85,9.43,54,71,4.35,LY,1675632176
37,shimoda,34.6667,138.95,7.57,60,1,4.87,JP,1675632177
38,bredasdorp,-34.5322,20.0403,21.77,77,100,3.6,ZA,1675632178
39,nemuro,43.3236,145.575,-5.56,82,83,2.77,JP,1675632178
40,bhopal,23.2667,77.4,16.85,35,0,0.95,IN,1675632179
41,hobart,-42.8794,147.3294,17.25,70,20,5.14,AU,1675632181
42,torbay,47.6666,-52.7314,-3.57,75,75,7.2,CA,1675632182
43,vila franca do campo,37.7167,-25.4333,15.23,83,61,2.91,PT,1675632184
44,mindelo,16.8901,-24.9804,20.75,52,75,11.32,CV,1675632186
45,ancud,-41.8697,-73.8203,17.05,73,25,4.62,CL,1675632187
46,zaterechnyy,44.7931,45.2097,-3.2,93,43,3.8,RU,1675632188
47,high level,58.5169,-117.136,-11.94,85,100,1.03,CA,1675632190
48,albany,42.6001,-73.9662,6.52,47,98,0.89,US,1675631950
49,islahiye,37.025,36.6306,2.68,99,100,1.97,TR,1675632191
50,champerico,14.3,-91.9167,33.3,60,0,4.6,GT,1675632193
51,launceston,-41.45,147.1667,14.08,87,69,1.54,AU,1675632194
52,urucara,-2.5364,-57.76,26.65,87,92,0.91,BR,1675632195
53,wadi maliz,36.4681,8.5495,6.81,75,60,0.77,TN,1675632197
54,hilo,19.7297,-155.09,25.71,81,75,2.24,US,1675632199
55,hithadhoo,-0.6,73.0833,26.89,71,76,4.7,MV,1675632029
56,cervo,43.6702,-7.4101,11.65,80,22,10.31,ES,1675632201
57,tasiilaq,65.6145,-37.6368,-4.91,92,100,3.72,GL,1675632054
58,constitucion,-35.3333,-72.4167,19.28,75,17,3.72,CL,1675632203
59,marienburg,54.0359,19.0266,-2.28,92,100,1.66,PL,1675632205
60,komsomolskiy,40.4272,71.7189,3.4,93,100,2.06,UZ,1675632207
61,geraldton,-28.7667,114.6,23.23,73,100,5.14,AU,1675632209
62,hermanus,-34.4187,19.2345,21.0,84,91,4.41,ZA,1675632210
63,arani,12.6667,79.2833,19.41,88,88,1.16,IN,1675632210
64,te anau,-45.4167,167.7167,14.06,90,100,3.09,NZ,1675632211
65,butaritari,3.0707,172.7902,26.8,83,100,8.56,KI,1675632212
66,zhigansk,66.7697,123.3711,-42.78,97,98,0.64,RU,1675632213
67,ternate,0.8,127.4,24.98,88,100,3.67,ID,1675632213
68,poum,-20.2333,164.0167,28.64,81,100,9.06,NC,1675632214
69,mayo,38.8876,-76.5119,14.97,55,0,5.66,US,1675632215
70,totskoye,52.5248,52.7623,-13.98,94,100,0.44,RU,1675632216
71,vaini,-21.2,-175.2,26.09,83,75,1.03,TO,1675632216
72,busselton,-33.65,115.3333,18.98,81,34,5.33,AU,1675632034
73,aksu,41.1231,80.2644,-5.84,82,100,2.07,CN,1675632218
74,dalbandin,28.8947,64.4101,14.13,38,0,2.27,PK,1675632218
75,mamallapuram,12.6264,80.1722,24.03,79,70,2.35,IN,1675632219
76,atuona,-9.8,-139.0333,25.72,81,33,8.08,PF,1675632220
77,kaitangata,-46.2817,169.8464,16.46,76,80,8.66,NZ,1675632221
78,castro,-24.7911,-50.0119,22.82,68,65,3.31,BR,1675632222
79,anadyr,64.75,177.4833,-31.72,75,75,5.0,RU,1675632223
80,halifax,44.6453,-63.5724,3.58,93,100,3.58,CA,1675631707
81,two hills,53.7169,-111.7518,-1.73,74,92,4.12,CA,1675632224
82,kapaa,22.0752,-159.319,26.18,84,75,7.2,US,1675632049
83,lavrentiya,65.5833,-171.0,-19.42,95,100,4.12,RU,1675632152
84,port alfred,-33.5906,26.891,21.77,94,33,1.34,ZA,1675632033
85,cidreira,-30.1811,-50.2056,26.1,64,52,5.57,BR,1675632227
86,lagoa,39.05,-27.9833,15.28,83,99,7.66,PT,1675632228
87,lyubech,51.7026,30.6569,-3.9,93,100,4.66,UA,1675632228
88,nakusp,50.2499,-117.8023,4.15,93,100,2.06,CA,1675632229
89,norman wells,65.282,-126.8329,-27.98,76,100,1.03,CA,1675632230
90,kahului,20.8947,-156.47,26.02,75,40,10.8,US,1675632231
91,carnarvon,-24.8667,113.6333,24.61,75,3,6.94,AU,1675632231
92,hambantota,6.1241,81.1185,24.44,82,98,4.8,LK,1675632102
93,sabanalarga,10.6296,-74.9206,28.49,45,82,5.98,CO,1675632233
94,grindavik,63.8424,-22.4338,7.97,81,75,22.12,IS,1675632128
95,pedasi,7.5333,-80.0333,29.48,68,11,7.23,PA,1675632234
96,brigantine,39.4101,-74.3646,8.41,75,100,3.13,US,1675632019
97,vardo,70.3705,31.1107,-6.01,93,100,7.2,NO,1675632235
98,bluff,-46.6,168.3333,15.27,86,62,11.43,NZ,1675632130
99,saldanha,-33.0117,17.9442,19.03,90,7,9.22,ZA,1675632162
100,mahebourg,-20.4081,57.7,26.81,83,40,2.06,MU,1675632237
101,nikolskoye,59.7035,30.7861,-4.06,95,100,3.64,RU,1675632238
102,shache,38.4167,77.2406,-4.01,81,99,2.28,CN,1675632238
103,juybar,36.6412,52.9124,8.94,48,2,1.59,IR,1675632239
104,biak,-0.9131,122.8766,24.76,80,100,2.59,ID,1675632240
105,kununurra,-15.7667,128.7333,23.99,94,42,0.0,AU,1675632241
106,sao joao da barra,-21.6403,-41.0511,25.05,91,38,4.21,BR,1675632242
107,fortuna,40.5982,-124.1573,10.19,90,100,1.54,US,1675632244
108,lebu,-37.6167,-73.65,18.34,78,2,9.05,CL,1675632066
109,micheweni,-4.9667,39.8333,26.45,77,11,4.73,TZ,1675632248
110,khatanga,71.9667,102.5,-36.52,99,72,2.81,RU,1675632252
111,moshi,-3.35,37.3333,23.86,41,45,3.45,TZ,1675632255
112,los llanos de aridane,28.6585,-17.9182,13.96,72,75,4.12,ES,1675632256
113,ngunguru,-35.6167,174.5,19.48,90,95,4.39,NZ,1675632258
114,tuktoyaktuk,69.4541,-133.0374,-43.0,66,40,2.06,CA,1675632260
115,nelson bay,-32.7167,152.15,23.38,88,1,1.34,AU,1675632262
116,marawi,7.9986,124.2928,19.33,90,100,1.2,PH,1675632263
117,provideniya,64.3833,-173.3,-14.8,72,100,6.0,RU,1675632264
118,naze,28.3667,129.4833,17.51,82,100,3.79,JP,1675632265
119,xining,36.6167,101.7667,-4.75,58,0,0.13,CN,1675632266
120,san quintin,30.4833,-115.95,18.05,62,24,10.05,MX,1675632081
121,yerbogachen,61.2767,108.0108,-35.88,100,98,0.99,RU,1675632268
122,menongue,-14.6585,17.691,16.59,91,100,2.3,AO,1675632271
123,watrous,51.6668,-105.4679,-7.12,86,12,7.72,CA,1675632272
124,malumfashi,11.7853,7.6218,24.48,16,100,3.92,NG,1675632272
125,saskylakh,71.9167,114.0833,-41.38,100,96,1.74,RU,1675632273
126,piranhas,-16.4269,-51.8222,27.41,78,73,1.54,BR,1675632274
127,nosy varika,-20.5833,48.5333,23.16,93,100,2.51,MG,1675632275
128,gazanjyk,39.2446,55.5154,7.06,57,6,1.28,TM,1675632275
129,rafai,4.95,23.9167,25.07,25,63,1.47,CF,1675632276
130,miramar,25.9873,-80.2323,27.01,78,20,5.66,US,1675632277
131,mar del plata,-38.0023,-57.5575,31.02,37,0,6.17,AR,1675632042
132,saint-philippe,-21.3585,55.7679,25.77,86,100,5.01,RE,1675632027
133,baoqing,46.3317,132.2111,-23.71,99,57,1.68,CN,1675632279
134,gunjur,13.2019,-16.7339,21.04,60,0,4.63,GM,1675632280
135,itoman,26.1247,127.6694,19.01,96,75,5.66,JP,1675632281
136,tuatapere,-46.1333,167.6833,14.58,91,86,5.75,NZ,1675632281
137,uda,44.9167,24.5667,-8.22,79,8,2.39,RO,1675632282
138,hamilton,39.1834,-84.5333,11.35,57,100,3.13,US,1675631596
139,cayenne,4.9333,-52.3333,22.02,100,75,1.54,GF,1675632283
140,camacupa,-12.0167,17.4833,15.67,92,100,1.4,AO,1675632285
141,kodiak,57.79,-152.4072,3.73,100,100,7.72,US,1675632104
142,chicama,-7.8447,-79.1469,26.3,55,39,4.97,PE,1675632286
143,beachwood,41.4645,-81.5087,7.44,65,100,4.12,US,1675632056
144,katangli,51.7102,143.2326,-19.89,96,98,3.52,RU,1675632287
145,east london,-33.0153,27.9116,24.09,87,24,1.72,ZA,1675632281
146,pangody,65.85,74.4859,-24.98,100,100,2.32,RU,1675632288
147,bengkulu,-3.8004,102.2655,23.27,88,98,3.2,ID,1675632289
148,bukoba,-1.3317,31.8122,20.72,66,72,1.28,TZ,1675632290
149,honningsvag,70.9821,25.9704,2.86,87,100,17.49,NO,1675632291
150,pagudpud,18.5616,120.7868,23.0,80,88,1.28,PH,1675632291
151,takab,36.4009,47.1133,-6.45,94,100,1.56,IR,1675632292
152,grand gaube,-20.0064,57.6608,26.88,78,57,2.68,MU,1675632182
153,flateby,59.8333,11.1667,-1.91,95,86,0.93,NO,1675632293
154,cedartown,34.0537,-85.255,17.16,57,69,4.13,US,1675632153
155,cabo san lucas,22.8909,-109.9124,27.56,40,0,4.12,MX,1675632294
156,coquimbo,-29.9533,-71.3436,23.85,53,0,6.17,CL,1675631982
157,mogadishu,2.0371,45.3438,24.94,83,10,8.94,SO,1675632119
158,sakakah,29.9697,40.2064,12.76,34,100,3.24,SA,1675632296
159,korla,41.7597,86.1469,-2.06,71,1,2.06,CN,1675632297
160,kavieng,-2.5744,150.7967,27.24,78,97,2.38,PG,1675632199
161,victoria,22.2855,114.1577,19.97,88,100,2.24,HK,1675632242
162,kodinsk,58.6881,99.1844,-17.58,100,100,1.32,RU,1675632299
163,sao filipe,14.8961,-24.4956,21.51,62,93,7.36,CV,1675632300
164,ko samui,9.5357,99.9357,26.47,76,42,3.43,TH,1675632301
165,kavarna,43.4333,28.3333,-3.4,87,100,12.26,BG,1675632303
166,westport,41.1415,-73.3579,7.64,57,0,0.0,US,1675632305
167,port elizabeth,-33.918,25.5701,25.05,93,75,6.17,ZA,1675632307
168,codrington,-38.2667,141.9667,14.84,78,41,1.69,AU,1675632308
169,bonito oriental,15.7477,-85.7356,27.79,85,81,1.54,HN,1675632310
170,nanortalik,60.1432,-45.2371,-7.04,89,100,9.99,GL,1675632250
171,adrar,20.5022,-10.0711,16.46,25,73,4.78,MR,1675632132
172,mareeba,-17.0,145.4333,24.4,97,70,0.96,AU,1675632175
173,san blas,21.5167,-105.2667,36.94,54,0,3.18,MX,1675632314
174,shakawe,-18.3667,21.85,21.37,87,100,0.84,BW,1675632317
175,ullapool,57.8987,-5.1604,5.27,84,100,4.39,GB,1675632319
176,tera,14.0078,0.7531,28.61,11,100,3.45,NE,1675632320
177,puerto ayora,-0.7393,-90.3518,29.98,88,29,3.58,EC,1675632284
178,baruun-urt,46.6806,113.2792,-21.23,93,36,1.95,MN,1675632326
179,saint george,37.1041,-113.5841,17.19,37,0,8.75,US,1675632058
180,iskateley,67.6803,53.1512,-16.64,99,98,2.97,RU,1675632328
181,faanui,-16.4833,-151.75,27.37,75,17,6.42,PF,1675632106
182,sitka,57.0531,-135.33,4.94,65,100,6.69,US,1675632329
183,chara,56.9064,118.2631,-24.03,86,97,0.74,RU,1675632330
184,vammala,61.3333,22.9,-0.79,88,77,3.4,FI,1675632331
185,pisco,-13.7,-76.2167,26.03,73,0,8.75,PE,1675632302
186,caravelas,-17.7125,-39.2481,26.35,78,0,4.93,BR,1675632332
187,berlevag,70.8578,29.0864,-2.0,80,75,7.2,NO,1675632333
188,ziarat,30.3823,67.7282,2.0,68,3,3.61,PK,1675632334
189,blois,47.5833,1.3333,5.21,76,14,5.26,FR,1675632334
190,clyde river,70.4692,-68.5914,-27.87,69,0,6.69,CA,1675632335
191,jumla,29.2747,82.1838,2.88,60,0,1.96,NP,1675632336
192,avarua,-21.2078,-159.775,28.03,83,75,6.69,CK,1675632337
193,egvekinot,66.3167,-179.1667,-29.77,88,100,5.08,RU,1675632337
194,talnakh,69.4865,88.3972,-14.33,97,99,1.56,RU,1675632290
195,berbera,10.4396,45.0143,23.75,66,100,2.01,SO,1675632339
196,benguela,-12.5763,13.4055,25.71,75,100,1.54,AO,1675632339
197,yellowknife,62.456,-114.3525,-21.36,77,100,4.12,CA,1675632166
198,najran,17.4924,44.1277,17.36,33,100,1.02,SA,1675632341
199,klyuchi,52.2667,79.1667,-10.42,96,100,2.19,RU,1675632341
200,kazachinskoye,57.6953,93.2761,-24.13,100,100,1.16,RU,1675632342
201,longyearbyen,78.2186,15.6401,-2.09,74,75,9.26,SJ,1675632343
202,tabas,33.5959,56.9244,6.12,52,0,2.06,IR,1675632344
203,paamiut,61.994,-49.6678,-8.89,83,100,9.5,GL,1675632345
204,san ignacio,17.1561,-89.0714,28.08,65,20,2.06,BZ,1675632346
205,hadejia,12.4498,10.0444,26.36,17,99,3.79,NG,1675632346
206,georgetown,5.4112,100.3354,24.97,99,20,0.0,MY,1675632295
207,labuhan,-6.8844,112.2051,25.35,85,100,2.94,ID,1675632348
208,ndele,8.4109,20.6473,24.99,16,24,2.01,CF,1675632348
209,rio grande,-32.035,-52.0986,26.06,71,11,5.8,BR,1675632349
210,alofi,-19.0595,-169.9187,25.94,83,99,3.09,NU,1675632350
211,upernavik,72.7868,-56.1549,-24.11,93,100,2.74,GL,1675632351
212,puerto del rosario,28.5004,-13.8627,16.86,67,0,5.14,ES,1675632352
213,san juan,-31.5375,-68.5364,36.8,14,0,3.29,AR,1675632353
214,udachnyy,66.4167,112.4,-39.66,100,97,0.8,RU,1675632353
215,chuy,-33.6971,-53.4616,22.89,63,0,4.84,UY,1675632279
216,mount gambier,-37.8333,140.7667,12.9,84,23,1.14,AU,1675632355
217,yambio,4.5721,28.3955,24.7,24,29,1.18,SS,1675632356
218,the valley,18.217,-63.0578,26.92,73,40,7.72,AI,1675632233
219,warren,39.4334,-84.1666,10.96,59,100,7.72,US,1675632357
220,kemijarvi,66.7131,27.4306,-9.79,98,100,0.83,FI,1675632358
221,port-gentil,-0.7193,8.7815,25.98,89,20,0.51,GA,1675632358
222,coos bay,43.3665,-124.2179,10.73,93,75,5.66,US,1675632071
223,oistins,13.0667,-59.5333,26.05,73,75,9.77,BB,1675632359
224,rawson,-43.3002,-65.1023,20.75,65,7,11.43,AR,1675632360
225,okhotsk,59.3833,143.3,-26.06,82,97,4.91,RU,1675632361
226,chumikan,54.7183,135.315,-23.32,92,64,6.83,RU,1675632362
227,oeiras,-7.0253,-42.1311,30.99,41,66,1.85,BR,1675632162
228,sehithwa,-20.4667,22.7167,23.13,71,89,1.63,BW,1675632368
229,inhambane,-23.865,35.3833,23.26,89,1,3.25,MZ,1675632370
230,havelock,34.8791,-76.9013,17.0,76,100,2.06,US,1675632371
231,touba,8.2833,-7.6833,28.19,20,17,0.98,CI,1675632373
232,saint-georges,12.0564,-61.7485,26.82,74,40,9.77,GD,1675632374
233,dongsheng,39.8161,109.9776,-5.24,39,96,1.6,CN,1675632376
234,constantine,36.365,6.6147,4.67,93,20,1.03,DZ,1675632377
235,bethel,41.3712,-73.414,7.47,49,100,0.89,US,1675632368
236,victor harbor,-35.5667,138.6167,13.71,84,14,3.34,AU,1675632383
237,obihiro,42.9172,143.2044,-8.49,94,86,1.17,JP,1675632384
238,behbahan,30.5959,50.2417,13.74,40,96,1.62,IR,1675632385
239,petropavlovka,50.6114,105.3196,-21.39,96,76,1.4,RU,1675632387
240,enshi,30.3,109.4833,4.81,96,16,0.19,CN,1675632388
241,nouakchott,18.0858,-15.9785,20.96,39,75,3.48,MR,1675632300
242,wahiawa,21.5028,-158.0236,25.18,65,100,2.57,US,1675632264
243,airai,-8.9266,125.4092,15.69,90,100,0.74,TL,1675632390
244,brazzaville,-4.2658,15.2832,27.17,78,20,3.09,CG,1675632391
245,manbij,36.5281,37.9549,3.65,94,100,1.56,SY,1675632392
246,bambous virieux,-20.3428,57.7575,26.79,83,40,2.06,MU,1675632356
247,batsfjord,70.6345,29.7185,-4.04,86,75,13.89,NO,1675632393
248,iqaluit,63.7506,-68.5145,-27.95,68,100,7.2,CA,1675632278
249,lompoc,34.6391,-120.4579,17.1,78,75,7.72,US,1675632119
250,san diego,32.7153,-117.1573,18.83,79,100,5.14,US,1675632273
251,elko,41.0002,-115.5012,4.01,73,100,8.05,US,1675632395
252,suntar,62.1444,117.6319,-49.16,100,69,1.19,RU,1675632396
253,rionero in vulture,40.9257,15.67,-0.71,66,85,5.66,IT,1675632397
254,viedma,-40.8135,-62.9967,31.59,18,48,8.35,AR,1675632398
255,rathkeale,52.5244,-8.9381,7.73,87,100,3.09,IE,1675632399
256,cordoba,-31.4135,-64.1811,34.12,37,0,5.66,AR,1675632367
257,matagami,49.7502,-77.6328,-15.94,66,0,3.09,CA,1675632400
258,sarkand,45.41,79.9186,-3.5,86,92,2.85,KZ,1675632401
259,goundam,16.4145,-3.6708,23.64,12,29,4.11,ML,1675632401
260,thompson,55.7435,-97.8558,-14.91,85,100,2.57,CA,1675632402
261,kholodnyy,62.7167,147.95,-36.42,100,96,1.54,RU,1675632403
262,sebina,-20.8667,27.25,21.74,58,5,4.54,BW,1675632403
263,luena,-11.7833,19.9167,15.95,95,85,2.69,AO,1675632404
264,salalah,17.0151,54.0924,22.05,78,0,0.51,OM,1675632404
265,kysyl-syr,63.8986,122.7617,-46.08,100,74,1.68,RU,1675632406
266,maragogi,-9.0122,-35.2225,26.5,80,18,3.47,BR,1675632354
267,shihezi,44.3,86.0333,-7.19,96,100,2.27,CN,1675632407
268,pregradnoye,45.8218,41.7469,0.32,71,100,5.13,RU,1675632408
269,necochea,-38.5473,-58.7368,29.28,38,36,4.75,AR,1675632408
270,souillac,-20.5167,57.5167,26.21,83,40,2.06,MU,1675632357
271,storforshei,66.4043,14.5233,-1.12,100,40,2.06,NO,1675632410
272,nuevo casas grandes,30.4167,-107.9167,23.98,9,0,5.2,MX,1675632410
273,arraial do cabo,-22.9661,-42.0278,27.92,78,75,2.06,BR,1675632109
274,kaduy,59.2,37.15,-20.7,100,100,0.84,RU,1675632412
275,binga,-17.6203,27.3414,22.53,84,79,1.04,ZW,1675632413
276,narsaq,60.9167,-46.05,-6.88,93,100,2.55,GL,1675632414
277,sao gabriel da cachoeira,-0.1303,-67.0892,25.91,94,87,0.18,BR,1675632404
278,bangsund,64.3968,11.3949,3.28,93,40,1.54,NO,1675632415
279,bilibino,68.0546,166.4372,-35.55,100,100,0.82,RU,1675632257
280,chapais,49.7834,-74.8492,-15.12,86,100,2.22,CA,1675632416
281,petropavlovsk-kamchatskiy,53.0452,158.6483,-7.67,93,100,2.0,RU,1675632417
282,klaksvik,62.2266,-6.589,8.51,93,100,15.73,FO,1675632070
283,hopkinsville,36.8656,-87.4886,15.04,70,69,5.98,US,1675632419
284,namibe,-15.1961,12.1522,22.02,79,58,3.38,AO,1675632391
285,oranjestad,12.524,-70.027,28.28,75,20,12.35,AW,1675632420
286,laguna,38.421,-121.4238,15.03,61,20,7.2,US,1675632371
287,vao,-22.6667,167.4833,26.26,86,75,7.44,NC,1675632131
288,sindor,62.8629,51.8905,-23.58,100,100,0.78,RU,1675632421
289,borgarnes,64.5383,-21.9206,8.78,71,100,13.64,IS,1675632423
290,cherskiy,68.75,161.3,-40.89,100,100,2.3,RU,1675632375
291,hongjiang,27.11,109.9956,7.15,95,100,0.81,CN,1675632425
292,kars,40.602,43.095,-8.75,92,75,1.03,TR,1675632427
293,kavaratti,10.5669,72.642,26.75,76,26,3.14,IN,1675632428
294,calama,-22.4667,-68.9333,24.27,29,40,9.26,CL,1675632248
295,ponta do sol,32.6667,-17.1,16.74,52,53,1.95,PT,1675632355
296,harlingen,26.1906,-97.6961,27.25,65,40,2.06,US,1675632176
297,loreto,22.2667,-101.9667,23.45,11,0,4.4,MX,1675632433
298,cabinda,-5.55,12.2,25.71,86,62,2.14,AO,1675632437
299,betanzos,43.2804,-8.2147,10.61,75,0,1.03,ES,1675632438
300,luderitz,-26.6481,15.1594,18.03,82,63,6.64,NA,1675632354
301,kruisfontein,-34.0033,24.7314,23.82,80,86,4.02,ZA,1675632409
302,montepuez,-13.1256,38.9997,20.98,96,96,1.51,MZ,1675632442
303,darnah,32.767,22.6367,10.74,57,99,15.23,LY,1675632445
304,monte patria,-30.6919,-70.9467,28.77,39,1,4.25,CL,1675632447
305,coahuayana,18.7333,-103.6833,31.0,43,0,3.51,MX,1675632448
306,saint anthony,45.0205,-93.218,0.23,64,0,2.57,US,1675632328
307,ewo,-0.8725,14.8206,25.49,61,80,1.32,CG,1675632450
308,craig,40.5153,-107.5464,1.97,51,0,0.0,US,1675632307
309,santa maria,-29.6842,-53.8069,28.61,45,20,2.06,BR,1675632451
310,ilulissat,69.2167,-51.1,-16.99,78,100,6.69,GL,1675632413
311,bow island,49.8668,-111.3684,4.71,75,96,2.57,CA,1675632453
312,beringovskiy,63.05,179.3167,-28.85,93,100,5.33,RU,1675632355
313,vila velha,-20.3297,-40.2925,27.97,82,20,4.12,BR,1675632454
314,tiznit,29.5833,-9.5,11.04,47,31,0.59,MA,1675632455
315,vanimo,-2.6741,141.3028,25.1,90,100,1.55,PG,1675632396
316,hanna,51.6334,-111.9018,-2.3,84,100,2.68,CA,1675632456
317,bacolod,10.6667,122.95,24.32,86,87,3.86,PH,1675632457
318,hofn,64.2539,-15.2082,7.84,98,100,14.57,IS,1675632391
319,waitara,-38.925,174.25,23.05,76,8,3.84,NZ,1675632458
320,avera,33.194,-82.5271,19.1,60,66,2.24,US,1675632254
321,tzucacab,20.0667,-89.05,28.97,52,24,1.89,MX,1675632459
322,togur,58.3631,82.8265,-20.13,100,100,1.45,RU,1675632460
323,andenes,69.3143,16.1194,2.18,87,75,6.17,NO,1675632461
324,husavik,66.0449,-17.3389,8.43,78,100,17.32,IS,1675632461
325,tual,-5.6667,132.75,26.62,82,100,9.6,ID,1675632462
326,lucapa,-8.4192,20.7447,17.51,94,97,0.84,AO,1675632463
327,uribia,11.7139,-72.266,31.6,43,59,11.46,CO,1675632464
328,pontalina,-17.525,-49.4472,24.47,88,100,1.19,BR,1675632464
329,barcelos,41.5388,-8.6151,12.69,62,0,2.9,PT,1675632465
330,salekhard,66.53,66.6019,-23.48,97,22,1.41,RU,1675632466
331,santa rosa,14.3122,121.1114,25.99,86,82,2.63,PH,1675632467
332,kaina,12.6374,8.5873,25.54,18,100,3.22,NG,1675632468
333,ketchikan,55.3422,-131.6461,4.99,75,100,4.12,US,1675632221
334,adre,13.4667,22.2,22.32,12,100,3.9,TD,1675632469
335,saint-paul,-21.0096,55.2707,26.06,80,100,1.24,RE,1675632469
336,zaysan,47.4667,84.8667,-8.77,84,99,1.99,KZ,1675632470
337,eureka,40.8021,-124.1637,10.34,90,100,0.89,US,1675632173
338,spirit river,55.7833,-118.8361,4.24,74,97,8.64,CA,1675632472
339,olafsvik,64.8945,-23.7142,5.82,74,100,18.77,IS,1675632473
340,mezen,65.8522,44.24,-17.92,97,42,2.96,RU,1675632473
341,pupiales,0.8714,-77.6403,11.08,82,75,4.63,CO,1675632474
342,wohlen,47.3524,8.2788,3.3,95,100,1.27,CH,1675632475
343,margate,51.3813,1.3862,5.94,84,65,1.79,GB,1675632386
344,mulchen,-37.7167,-72.2333,32.92,18,0,4.33,CL,1675632477
345,kungurtug,50.5994,97.5228,-21.57,99,99,0.9,RU,1675632460
346,strezhevoy,60.7333,77.5889,-22.61,100,100,1.35,RU,1675632478
347,nioro,13.35,-15.75,26.95,15,18,4.08,GM,1675632479
348,pemberton,50.3164,-122.8027,6.83,95,100,1.63,CA,1675632379
349,shingu,33.7333,135.9833,3.78,57,49,2.44,JP,1675632230
350,tukrah,32.5341,20.5791,10.02,62,96,12.64,LY,1675632481
351,dvinskoy,62.1535,45.1175,-21.36,100,100,1.33,RU,1675632482
352,vung tau,10.346,107.0843,24.45,82,14,7.51,VN,1675632483
353,yingcheng,30.95,113.55,8.81,73,98,1.72,CN,1675632483
354,meulaboh,4.1363,96.1285,23.52,88,100,2.09,ID,1675632322
355,rockingham,42.9668,-71.0995,8.89,47,100,4.27,US,1675632485
356,kita,13.0349,-9.4895,27.4,16,5,2.14,ML,1675632485
357,forestville,38.8451,-76.875,14.48,31,0,8.23,US,1675632358
358,la rioja,42.25,-2.5,0.88,92,71,2.39,ES,1675632487
359,shangzhi,45.2167,127.9667,-22.47,100,98,1.36,CN,1675632487
360,bonavista,48.6499,-53.1147,-5.02,62,86,9.51,CA,1675632357
361,koumac,-20.5667,164.2833,29.22,73,100,3.07,NC,1675632489
362,panguna,-6.3164,155.4848,21.02,94,100,0.58,PG,1675632489
363,tabou,4.423,-7.3528,26.62,84,96,4.45,CI,1675632490
364,khuzhir,53.1939,107.3397,-14.38,89,97,3.16,RU,1675632491
365,saint helens,53.45,-2.7333,2.96,83,0,1.03,GB,1675632492
366,karratha,-20.7377,116.8463,30.61,56,5,3.79,AU,1675632492
367,aykhal,66.0,111.5,-36.29,100,94,1.18,RU,1675632493
368,aklavik,68.2191,-135.0107,-37.47,97,46,0.54,CA,1675632482
369,namatanai,-3.6667,152.4333,26.27,80,63,1.49,PG,1675632298
370,saint-augustin,51.226,-58.6502,-15.98,86,100,1.16,CA,1675632495
371,moncton,46.1159,-64.8019,-2.6,93,100,2.06,CA,1675632391
372,weligama,5.9667,80.4167,24.43,91,100,0.57,LK,1675632497
373,sao domingos,-13.3983,-46.3183,26.01,70,69,0.65,BR,1675632498
374,alice springs,-23.7,133.8833,12.75,76,0,2.06,AU,1675632443
375,usukhchay,41.4225,47.9132,-0.87,78,31,1.83,RU,1675632499
376,tessalit,20.1986,1.0114,21.2,11,81,3.78,ML,1675632447
377,borogontsy,62.6683,131.1683,-34.88,100,99,0.82,RU,1675632500
378,trairi,-3.2778,-39.2689,26.19,80,99,3.68,BR,1675632501
379,martapura,-3.4167,114.85,23.05,100,100,2.57,ID,1675632309
380,palaikastron,35.2,26.25,9.25,69,100,16.82,GR,1675632502
381,paita,-5.0892,-81.1144,26.35,67,4,6.29,PE,1675632503
382,aksarka,66.5606,67.7975,-25.88,100,71,0.77,RU,1675632490
383,ixtapa,20.7,-105.2,25.57,65,0,5.66,MX,1675632494
384,mersing,2.4312,103.8405,22.95,94,40,0.0,MY,1675632505
385,ruidoso,33.3317,-105.673,17.81,16,1,6.17,US,1675632506
386,kargasok,59.0556,80.8572,-18.82,100,99,1.83,RU,1675632506
387,fairbanks,64.8378,-147.7164,-13.93,76,0,3.09,US,1675632419
388,cam ranh,11.9214,109.1591,21.98,94,20,1.54,VN,1675632507
389,merauke,-8.4667,140.3333,25.74,88,100,3.07,ID,1675632458
390,smithers,54.7804,-127.1743,4.18,45,20,5.14,CA,1675632509
391,quatre cocos,-20.2078,57.7625,26.72,78,58,5.43,MU,1675632472
392,denizli,37.8402,29.0698,1.69,93,100,6.38,TR,1675632510
393,hokitika,-42.7167,170.9667,17.38,82,28,7.63,NZ,1675632511
394,vallenar,-28.5708,-70.7581,28.75,36,0,4.59,CL,1675632467
395,zinacantepec,19.2819,-99.7386,18.91,10,0,3.6,MX,1675632513
396,black diamond,47.3087,-122.0032,8.48,89,100,0.89,US,1675632513
397,coxim,-18.5067,-54.76,27.0,83,100,1.23,BR,1675632514
398,yar-sale,66.8333,70.8333,-26.49,100,59,1.07,RU,1675632515
399,yuanping,38.7153,112.7575,-0.04,41,100,1.61,CN,1675632516
400,lagos,6.5833,3.75,27.07,85,100,2.89,NG,1675632454
401,ambanja,-13.6833,48.45,23.7,93,92,1.19,MG,1675632518
402,port huron,42.9709,-82.4249,6.13,66,75,6.69,US,1675632518
403,nizwa,22.9333,57.5333,21.02,55,93,0.88,OM,1675632519
404,terney,45.0503,136.6092,-11.0,77,9,3.99,RU,1675632520
405,sterling,39.0062,-77.4286,13.76,32,100,7.2,US,1675632521
406,nuuk,64.1835,-51.7216,-11.18,85,100,2.68,GL,1675632441
407,srednekolymsk,67.45,153.6833,-36.45,99,100,2.41,RU,1675632522
408,verkhoyansk,67.5447,133.385,-37.8,100,99,0.77,RU,1675632523
409,manicore,-5.8092,-61.3003,24.97,88,20,2.57,BR,1675632524
410,leh,34.1667,77.5833,-14.16,62,99,0.33,IN,1675632424
411,moorhead,46.8739,-96.7676,-5.59,80,100,2.24,US,1675632525
412,bathsheba,13.2167,-59.5167,26.34,73,75,9.77,BB,1675632462
413,zhangjiakou,40.81,114.8794,-5.13,36,63,2.48,CN,1675632526
414,titay,7.8125,122.5344,22.28,88,96,0.23,PH,1675632527
415,balkanabat,39.5108,54.3671,7.93,48,48,1.84,TM,1675632528
416,pinega,64.7001,43.3936,-18.11,98,60,2.61,RU,1675632529
417,hami,42.8,93.45,-1.52,40,0,1.38,CN,1675632101
418,portland,45.5234,-122.6762,10.55,86,100,6.26,US,1675632374
419,vohibinany,-17.35,49.0333,22.01,99,100,0.95,MG,1675632530
420,ostersund,63.1792,14.6357,-1.75,86,0,5.66,SE,1675632487
421,bolshoye selo,57.7177,38.9334,-10.68,97,98,1.27,RU,1675632532
422,aliaga,15.5167,120.8667,25.72,87,43,1.24,PH,1675632532
423,celestun,20.8667,-90.4,24.33,72,46,6.8,MX,1675632533
424,yakeshi,49.2833,120.7333,-27.48,100,100,1.13,CN,1675632534
425,makakilo city,21.3469,-158.0858,26.18,63,40,4.12,US,1675632534
426,buchanan,5.8808,-10.0467,26.49,85,100,3.48,LR,1675632350
427,tomaszow mazowiecki,51.5313,20.0086,-2.47,27,81,1.73,PL,1675632489
428,songea,-10.6833,35.65,18.34,94,100,0.9,TZ,1675632537
429,zaplavnoye,48.7048,45.0229,-6.61,95,89,2.61,RU,1675632537
430,tchibanga,-2.85,11.0333,22.11,97,67,0.87,GA,1675632539
431,ormara,25.2088,64.6357,21.57,80,0,7.18,PK,1675632540
432,sherlovaya gora,50.5667,116.25,-30.64,100,100,0.38,RU,1675632541
433,lieksa,63.3167,30.0167,-6.55,97,100,1.78,FI,1675632541
434,rabo de peixe,37.8,-25.5833,14.73,82,40,3.6,PT,1675632543
435,ponta delgada,37.7333,-25.6667,15.4,82,40,3.6,PT,1675632545
436,akhnur,32.8667,74.7333,13.98,57,100,1.85,IN,1675632546
437,lulea,65.5842,22.1547,-9.96,92,0,1.54,SE,1675632486
438,kirovskiy,45.0917,133.5136,-20.72,99,88,0.75,RU,1675632524
439,nhulunbuy,-12.2333,136.7667,24.34,94,100,0.0,AU,1675632540
440,ceres,37.5949,-120.9577,15.68,63,75,5.66,US,1675632550
441,san cristobal,7.7669,-72.225,26.1,60,40,2.69,VE,1675632507
442,mananara,-16.1667,49.7667,23.26,94,100,2.08,MG,1675632553
443,aksha,50.2814,113.2867,-21.12,98,29,1.93,RU,1675632554
444,kolondieba,11.0882,-6.8926,27.85,16,50,2.28,ML,1675632555
445,skjervoy,70.0311,20.9714,2.0,64,100,12.57,NO,1675632558
446,brigham city,41.5102,-112.0155,2.32,83,100,2.24,US,1675632559
447,asau,46.4333,26.4,-4.29,92,100,4.24,RO,1675632480
448,ambovombe,-25.1667,46.0833,22.61,86,99,5.84,MG,1675632561
449,marsabit,2.3284,37.9899,21.35,35,15,4.05,KE,1675632562
450,nuevo progreso,23.1667,-97.95,24.7,51,1,4.47,MX,1675632563
451,divnomorskoye,44.5011,38.1353,3.41,72,100,5.27,RU,1675632566
452,ahuimanu,21.4447,-157.8378,26.84,76,44,2.68,US,1675632568
453,kadyy,57.787,43.1903,-10.44,98,95,0.66,RU,1675632569
454,balabac,7.9868,117.0645,26.53,81,79,6.67,PH,1675632469
455,kpandu,6.9954,0.2931,28.35,66,100,3.99,GH,1675632570
456,ambilobe,-13.2,49.05,23.37,93,100,0.37,MG,1675632571
457,songjianghe,42.1859,127.479,-12.03,98,100,1.01,CN,1675632572
458,deputatskiy,69.3,139.9,-33.16,98,100,1.67,RU,1675632573
459,waipawa,-41.4122,175.5153,20.23,65,0,7.22,NZ,1675632544
460,inuvik,68.3499,-133.7218,-34.52,68,20,0.0,CA,1675632575
461,nortelandia,-14.4547,-56.8028,28.7,73,97,0.91,BR,1675632576
462,semey,50.4111,80.2275,-6.54,96,98,3.61,KZ,1675632576
463,panaba,21.2833,-88.2667,25.98,68,46,6.02,MX,1675632577
464,kyren,51.6828,102.1408,-16.37,92,98,0.49,RU,1675632578
465,longonjo,-12.9067,15.2533,16.88,82,96,1.3,AO,1675632579
466,murdochville,48.9583,-65.5006,-13.51,91,100,2.45,CA,1675632579
467,juneau,58.3019,-134.4197,2.34,91,100,5.14,US,1675632222
468,fukue,32.6881,128.8419,10.61,54,100,4.73,JP,1675632581
469,gat,31.61,34.7642,14.11,100,94,6.39,IL,1675632581
470,roald,62.5833,6.1333,6.16,81,75,5.14,NO,1675632391
471,havoysund,70.9963,24.6622,3.13,72,100,13.41,NO,1675632583
472,prince albert,53.2001,-105.7677,-0.03,69,75,3.09,CA,1675632584
473,touros,-5.1989,-35.4608,26.94,74,96,4.76,BR,1675632584
474,lososina,48.9975,140.3106,-20.19,93,48,1.95,RU,1675632585
475,lorengau,-2.0226,147.2712,26.91,82,100,1.97,PG,1675632216
476,arlit,18.7369,7.3853,23.58,13,8,4.2,NE,1675632586
477,price,39.5994,-110.8107,2.59,55,100,1.54,US,1675632587
478,hay river,60.8156,-115.7999,-16.01,78,100,4.12,CA,1675632310
479,dingle,10.9995,122.6711,22.97,93,31,3.7,PH,1675632410
480,lake charles,30.2131,-93.2044,21.13,62,100,5.14,US,1675632459
481,praia da vitoria,38.7333,-27.0667,15.42,88,40,6.83,PT,1675632589
482,senanga,-16.1167,23.2667,19.61,94,88,2.13,ZM,1675632590
483,port hedland,-20.3167,118.5667,26.03,83,1,3.09,AU,1675632592
484,debre zeyit,8.75,38.9833,15.63,52,12,2.06,ET,1675632592
485,xai-xai,-25.0519,33.6442,24.06,83,6,3.63,MZ,1675632593
486,taoudenni,22.6783,-3.9836,18.17,19,49,4.72,ML,1675632594
487,aasiaat,68.7098,-52.8699,-21.35,90,100,4.78,GL,1675632595
488,macau,22.2006,113.5461,18.89,94,40,0.51,MO,1675632488
489,bonthe,7.5264,-12.505,25.58,79,100,4.05,SL,1675632596
490,pedernales,18.0384,-71.744,28.82,55,59,7.55,DO,1675632597
491,vila,42.0304,-8.1588,5.49,58,0,2.12,PT,1675632473
492,puerto suarez,-18.95,-57.8,32.31,51,40,1.54,BO,1675632599
493,can tho,10.0333,105.7833,21.99,100,20,1.03,VN,1675632599
494,mangrol,21.1167,70.1167,20.37,50,0,4.15,IN,1675632600
495,freeport,40.6576,-73.5832,7.99,73,0,7.2,US,1675632305
496,naifaru,5.4444,73.3657,26.63,79,100,1.8,MV,1675632602
497,pereira barreto,-20.6383,-51.1092,24.34,85,89,2.01,BR,1675632605
498,richards bay,-28.783,32.0377,23.47,85,48,1.85,ZA,1675632607
499,aberdeen,57.1437,-2.0981,6.27,56,99,1.54,GB,1675631938
500,camacha,33.0833,-16.3333,14.68,67,40,6.17,PT,1675632459
501,raga,8.4596,25.678,23.96,16,6,1.33,SS,1675632331
502,florianopolis,-27.6146,-48.5012,25.57,83,20,5.66,BR,1675632492
503,dubbo,-32.25,148.6167,19.07,63,0,4.63,AU,1675632513
504,mumbwa,-14.9783,27.0619,17.67,97,100,1.87,ZM,1675632622
505,lengshuitan,26.4111,111.5956,8.94,90,98,0.47,CN,1675632625
506,lasa,46.6166,10.7002,1.49,91,65,2.51,IT,1675632513
507,zaranj,30.9667,61.8833,9.98,57,0,4.45,AF,1675632628
508,disna,55.568,28.1971,-10.98,97,100,1.98,BY,1675632629
509,prince rupert,54.3161,-130.3201,5.05,81,0,8.23,CA,1675632604
510,college,64.8569,-147.8028,-13.94,75,0,3.09,US,1675632400
511,rosetta,31.4044,30.4164,14.43,69,78,14.02,EG,1675632631
512,villarrica,-25.75,-56.4333,29.46,35,100,1.3,PY,1675632631
513,esna,25.2934,32.554,12.01,36,69,2.7,EG,1675632632
514,hobyo,5.3505,48.5268,24.53,79,13,7.98,SO,1675632408
515,rumonge,-3.9736,29.4386,20.76,82,91,1.19,BI,1675632633
516,morant bay,17.8815,-76.4093,29.84,73,6,5.71,JM,1675632634
517,whitehorse,60.7161,-135.0538,-11.57,85,40,4.63,CA,1675632635
518,marrakesh,31.6315,-8.0083,15.04,33,40,1.54,MA,1675632636
519,ostrovnoy,68.0531,39.5131,-11.71,95,94,6.7,RU,1675632192
520,marystown,47.1666,-55.1483,-4.73,69,89,7.69,CA,1675632637
521,patamundai,20.5667,86.5667,17.2,82,6,1.82,IN,1675632638
522,kologriv,58.8275,44.3178,-12.35,99,96,0.67,RU,1675632640
523,slave lake,55.2834,-114.769,-2.01,93,75,3.6,CA,1675632641
524,deer lake,49.1667,-57.4316,-7.08,86,100,7.72,CA,1675632633
525,jardim,-21.4803,-56.1381,25.89,75,82,1.64,BR,1675632222
526,bari,41.1177,16.8512,5.49,54,75,9.83,IT,1675632643
527,syracuse,37.0881,15.2792,6.77,51,1,8.64,IT,1675632644
528,serov,59.6033,60.5787,-10.18,98,100,0.98,RU,1675632645
529,vanavara,60.34,102.2797,-13.92,97,100,1.5,RU,1675632646
530,kulu,39.0951,33.0799,-2.08,88,100,7.94,TR,1675632647
531,atbasar,51.8,68.3333,-10.38,96,100,3.21,KZ,1675632648
532,kuala terengganu,5.3302,103.1408,25.97,89,40,2.57,MY,1675632648
533,port macquarie,-31.4333,152.9167,23.83,73,89,1.7,AU,1675632467
534,uhlove,44.8215,33.6045,1.12,81,100,9.98,UA,1675632650
535,mayumba,-3.432,10.6554,25.67,86,75,2.26,GA,1675632651
536,baculin,7.4525,126.5842,24.63,82,89,2.43,PH,1675632652
537,saint john,45.2727,-66.0677,3.0,86,100,1.54,CA,1675632362
538,iberia,29.9502,-91.7507,21.65,46,75,3.6,US,1675632653
539,evanston,42.0411,-87.6901,5.27,65,40,4.63,US,1675632454
540,burnie,-41.0667,145.9167,16.69,67,54,5.06,AU,1675632654
541,gladstone,-23.85,151.25,25.99,78,100,5.66,AU,1675632655
542,altay,47.8667,88.1167,-8.6,68,83,2.91,CN,1675632656
543,muroto,33.2833,134.15,9.33,56,100,2.76,JP,1675632407
544,sao joao do paraiso,-15.3136,-42.0144,23.41,67,66,1.59,BR,1675632657
545,kaeo,-35.1,173.7833,20.74,94,79,4.23,NZ,1675632336
546,kasongo,-4.45,26.6667,20.42,95,100,1.5,CD,1675632659
547,masagua,14.2031,-90.8481,32.95,38,9,3.91,GT,1675632660
548,puerto leguizamo,-0.1934,-74.7819,26.03,74,77,1.36,CO,1675632661
549,denpasar,-8.65,115.2167,24.84,94,75,10.29,ID,1675632662
550,tefe,-3.3542,-64.7114,29.06,84,75,9.26,BR,1675632664
551,sambava,-14.2667,50.1667,24.31,90,99,2.03,MG,1675632665
552,kalundborg,55.6795,11.0886,2.79,87,68,6.92,DK,1675632666
553,bubaque,11.2833,-15.8333,24.69,62,51,6.23,GW,1675632667
554,mulki,13.1,74.8,26.6,83,18,0.0,IN,1675632669
555,karasjok,69.4719,25.5112,-2.19,81,82,7.33,NO,1675632670
556,mecca,21.4267,39.8261,21.67,62,26,0.98,SA,1675632408
557,ugoofaaru,5.6667,73.0,26.65,77,100,1.41,MV,1675632674
558,astoria,46.1879,-123.8313,8.94,94,100,5.14,US,1675632677
559,mitsamiouli,-11.3847,43.2844,27.5,78,100,2.56,KM,1675632409
560,sosnovo-ozerskoye,52.5249,111.5418,-25.62,99,93,2.4,RU,1675632680
561,naryan-mar,67.6713,53.087,-16.61,99,98,3.0,RU,1675632522
562,verkhovazhye,60.7472,42.0465,-19.16,100,100,1.3,RU,1675632687
563,willowmore,-33.2926,23.4895,20.45,68,70,3.47,ZA,1675632688
564,araceli,10.5529,119.9913,25.84,85,97,6.11,PH,1675632503
